City_ID,City,Country,Max Temp,Current Description,Lat,Lng,Hotel Name
0,Butaritari,KI,82.49,light rain,3.0707,172.7902,Isles Sunset Lodge
1,Aksu,CN,89.89,clear sky,41.1231,80.2644,Pudong Holiday Hotel
5,Ponta Do Sol,PT,72.72,clear sky,32.6667,-17.1,Hotel do Campo
8,Tubuala,PA,78.33,overcast clouds,9.5167,-79.0333,Río Nabagana
9,Pochutla,MX,82.81,overcast clouds,15.7432,-96.4661,Hotel Posada San Jose
12,Hilo,US,78.53,light rain,19.7297,-155.09,Hilo Hawaiian Hotel
14,Ponta Delgada,PT,70.52,light intensity drizzle,37.7333,-25.6667,Vila Nova Hotel
15,Sistranda,NO,70.9,clear sky,63.7256,8.834,Hotell Frøya
17,Samarai,PG,78.73,overcast clouds,-10.6167,150.6667,Nuli Sapi
18,Byron Bay,AU,72.05,clear sky,-28.65,153.6167,Backpackers Inn on the Beach
19,Bontang,ID,82.44,scattered clouds,0.1333,117.5,KOPKAR Hotel Bintang Sintuk
20,Bathsheba,BB,80.2,clear sky,13.2167,-59.5167,Atlantis Hotel
21,Avarua,CK,77.05,broken clouds,-21.2078,-159.775,Paradise Inn
25,Buala,SB,80.2,light rain,-8.145,159.5921,Maringe Lagoon Lodge
26,Kahului,US,85.26,scattered clouds,20.8947,-156.47,Maui Seaside Hotel
30,Vila Franca Do Campo,PT,70.21,overcast clouds,37.7167,-25.4333,Pestana Bahia Praia
34,Fukuchiyama,JP,89.46,overcast clouds,35.3,135.1167,Fukuchiyama Ark Hotel
39,Lazaro Cardenas,MX,82.2,broken clouds,17.9583,-102.2,quinta antigua
40,Yeppoon,AU,71.38,few clouds,-23.1333,150.7333,Villa Mar Colina
41,Qui Nhon,VN,87.89,few clouds,13.7667,109.2333,Hoang Yen Canary Hotel
45,Teknaf,BD,79.07,heavy intensity rain,20.8624,92.3058,Forestry Guesthouse
46,Altay,CN,78.67,clear sky,47.8667,88.1167,Jinqiao Hotel
51,Kavieng,PG,84.94,broken clouds,-2.5744,150.7967,Nusa Island Retreat
57,Atuona,PF,77.81,scattered clouds,-9.8,-139.0333,Villa Enata
58,Ariquemes,BR,81.01,broken clouds,-9.9133,-63.0408,Hotel Sol Nascente - Ariquemes - RO
63,Zaltan,LY,79.12,clear sky,32.947,11.8665,زلطن الشرقية
64,Panzhihua,CN,78.4,broken clouds,26.5851,101.7128,Electric Power Hotel
65,Bangkalan,ID,80.55,clear sky,-7.0455,112.7351,SPOT ON 2591 Griya Demangan Syariah
66,Georgetown,MY,85.95,scattered clouds,5.4112,100.3354,Cititel Penang
67,Aden,YE,82.04,overcast clouds,12.7794,45.0367,Sama Emirate Hotel
68,Semnan,IR,81.91,clear sky,35.5729,53.3971,Semnan Tourist Hotel
71,Totness,SR,77.49,overcast clouds,5.8833,-56.3167,STAATS LOGEERGEBOUW TOTNESS
72,Faanui,PF,78.73,light rain,-16.4833,-151.75,Bora-Bora Pearl Beach Resort & Spa
73,Phan Thiet,VN,85.55,clear sky,10.9333,108.1,Hotel Saigon-PT
75,Vaini,TO,77.16,broken clouds,-21.2,-175.2,Keleti Beach Resort
76,Lagoa,PT,70.65,overcast clouds,39.05,-27.9833,Casa Das Faias
79,Jalu,LY,78.39,clear sky,29.0331,21.5482,صاحبة الفخامة
80,Alyangula,AU,78.35,broken clouds,-13.8483,136.4192,Groote Eylandt Lodge
83,Salina Cruz,MX,82.65,overcast clouds,16.1667,-95.2,Amerik HOTEL
85,Pringsewu,ID,82.13,few clouds,-5.3582,104.9744,Urban Style by Front One
86,Farmington,US,72.28,overcast clouds,36.7281,-108.2187,Courtyard by Marriott Farmington
88,Lorengau,PG,84.34,broken clouds,-2.0226,147.2712,Lorengau Harbourside Hotel
89,Nanchong,CN,83.07,clear sky,30.7951,106.0847,Marine Una Century Hotel
94,San Cristobal,VE,71.78,overcast clouds,7.7669,-72.225,Posada Villaven C.A.
95,Benemerito De Las Americas,MX,77.18,broken clouds,16.5167,-90.6439,"Tres Lagunas, Selva Lacandona"
99,Jamestown,US,71.24,clear sky,42.097,-79.2353,Hampton Inn & Suites Jamestown
103,Watari,JP,75.78,mist,38.035,140.8511,Hotel Boston Club
105,Bethel,US,75.76,haze,41.3712,-73.414,Courtyard by Marriott Danbury
106,Puerto Ayora,EC,71.55,few clouds,-0.7393,-90.3518,Finch Bay Galapagos Hotel
110,Tual,ID,81.55,scattered clouds,-5.6667,132.75,Grand Vilia Hotel
111,Lakota,CI,70.05,overcast clouds,5.8528,-5.6883,Aziz bah divers
112,Kapaa,US,84.52,broken clouds,22.0752,-159.319,Sheraton Kauai Coconut Beach Resort
115,Carnarvon,AU,71.67,few clouds,-24.8667,113.6333,Hospitality Carnarvon
118,Chodavaram,IN,84.04,overcast clouds,17.8333,82.95,Ganesh Defence Academy chodavadaram hostel
121,Rikitea,PF,74.75,overcast clouds,-23.1203,-134.9692,People ThankYou
126,Port Elizabeth,ZA,70.11,overcast clouds,-33.918,25.5701,39 On Nile Guest House
130,Saint George,US,80.55,few clouds,37.1041,-113.5841,Best Western Plus Abbey Inn
131,Broome,US,73.08,scattered clouds,42.2506,-75.833,Chenango Valley State Park
136,Hasaki,JP,79.09,scattered clouds,35.7333,140.8333,Hotel Sunrise Choshi
137,Moussoro,TD,81.28,overcast clouds,13.6408,16.4901,Pharmacie alnadja Moussoro
139,Alamos,MX,89.71,few clouds,27.0167,-108.9333,Luz del Sol
141,Dulce Nombre De Culmi,HN,84.43,scattered clouds,15.1,-85.5333,Hotel Posada Real
144,Pervomaysk,UA,70.3,few clouds,48.0443,30.8507,Erikh Shyule Hotelʹ Pp
146,Cranbrook,CA,87.62,clear sky,49.4999,-115.7688,Almo Court Motel
149,Islamkot,PK,83.23,overcast clouds,24.6997,70.177,Haji Hotel
151,Kupang,ID,86.58,few clouds,-10.1667,123.5833,Hotel On The Rock by Prasanthi
154,San Patricio,US,84.83,clear sky,28.017,-97.5169,"Motel 6 Sinton, TX"
155,Sao Raimundo Das Mangabeiras,BR,74.46,broken clouds,-7.0219,-45.4811,Hotel Tropical
158,Tura,IN,79.88,light rain,25.5198,90.2201,Hotel RIKMAN Continental
167,Vilyuysk,RU,77.27,clear sky,63.7553,121.6247,Gostinitsa Viliuisk
169,Kosonsoy,UZ,77.56,clear sky,41.2561,71.5508,"Гостиница ""Goldstar'"
172,La Asuncion,VE,78.19,overcast clouds,11.0333,-63.8628,Colinas de Matasiete
174,Garowe,SO,76.39,scattered clouds,8.4054,48.4845,Curubo Hotel
180,Finschhafen,PG,77.88,overcast clouds,-6.6024,147.8681,Cossam Guest House
181,Port Hedland,AU,77.05,overcast clouds,-20.3167,118.5667,The Esplanade Hotel
188,Luganville,VU,79.52,overcast clouds,-15.5333,167.1667,The Espiritu Hotel
191,Mumford,GH,75.58,overcast clouds,5.2618,-0.759,Spanish Villa
194,Xichang,CN,73.42,broken clouds,27.8964,102.2634,Xichang ibis Hotel
195,Batitang,PH,86.32,overcast clouds,15.4045,120.8079,BALAY BANTOG RESORT
196,Bengkulu,ID,81.3,few clouds,-3.8004,102.2655,Grage Hotel Bengkulu
198,Sao Filipe,CV,74.97,few clouds,14.8961,-24.4956,Hotel Xaguate
199,Swan River,CA,71.49,clear sky,52.1058,-101.2676,Super 8 by Wyndham Swan River MB
200,Lengyeltoti,HU,73.42,scattered clouds,46.6701,17.644,Servus Guesthouse
201,Aswan,EG,87.08,few clouds,24.0934,32.907,Nuba Nile
205,Saint Anthony,US,84.92,clear sky,45.0205,-93.218,"Holiday Inn Express Roseville-St. Paul, an IHG Hotel"
207,Half Moon Bay,US,84.74,broken clouds,37.4636,-122.4286,"The Ritz-Carlton, Half Moon Bay"
209,La Orilla,MX,81.72,broken clouds,17.9833,-102.2333,Baymont by Wyndham Lazaro Cardenas
211,Ermoupolis,GR,77.9,clear sky,37.4423,24.9425,Ploes
213,Boueni,YT,75.18,clear sky,-12.9025,45.0761,The feet in water
214,Banjar,ID,80.46,clear sky,-8.19,114.9675,The Hamsa Resort
216,Lahaina,US,85.24,scattered clouds,20.8783,-156.6825,Lahaina Shores Beach Resort
218,Hithadhoo,MV,80.89,overcast clouds,-0.6,73.0833,Scoop Guest House
221,Kourou,GF,82.11,broken clouds,5.1552,-52.6478,Lodge TAKINI4 Guesthouse KOUROU FGU
223,Salalah,OM,78.89,broken clouds,17.0151,54.0924,HAMDAN PLAZA HOTEL SALALAH
224,Spearfish,US,89.82,clear sky,44.4908,-103.8594,Travelodge by Wyndham Spearfish
226,Komsomolskiy,UZ,86.72,clear sky,40.4272,71.7189,Ikathouse
227,Harper,LR,75.45,overcast clouds,4.375,-7.7169,Screensaver
231,Honiara,SB,84.42,overcast clouds,-9.4333,159.95,Heritage Park Hotel
234,Khatanga,RU,70.0,overcast clouds,71.9667,102.5,"Gostinitsa ""Zapolyar'ye"""
235,Kumluca,TR,84.87,clear sky,36.3703,30.2869,TurkuazKöy
237,Lithakia,GR,77.59,clear sky,37.7167,20.8333,Zante Plaza Hotel & Apartments
239,Hami,CN,89.04,clear sky,42.8,93.45,Laoyutang Resort
240,Nabire,ID,86.68,broken clouds,-3.3667,135.4833,Hotel Nusantara Nabire
241,Salinas,US,84.15,clear sky,36.6777,-121.6555,Laurel Inn & Conference Center
244,Lodwar,KE,77.7,overcast clouds,3.1191,35.5973,Solmar Gracious Hotel
249,Kampong Chhnang,KH,86.18,broken clouds,12.1667,104.55,រមណីយដ្ឋាន ទឹកធ្លាក់ស្រែអំពិល
251,Pauini,BR,78.8,broken clouds,-7.7136,-66.9764,Casa do Kiwliks
252,Touros,BR,72.5,clear sky,-5.1989,-35.4608,INN NEW HORIZON
254,Sena Madureira,BR,76.93,scattered clouds,-9.0656,-68.6569,Hotel Central
257,Acarau,BR,78.4,clear sky,-2.8856,-40.12,castelo pizzaria
261,Nouadhibou,MR,70.2,clear sky,20.931,-17.0347,El Medina
263,Shingu,JP,85.19,overcast clouds,33.7333,135.9833,Shingu UI Hotel
268,Alofi,NU,80.49,scattered clouds,-19.0595,-169.9187,Taloa Heights
271,Cikupa,ID,86.34,clear sky,-6.2364,106.5083,Amaris Hotel Citra Raya - Tangerang
272,Tabuk,PH,85.82,overcast clouds,17.4189,121.4443,Golden Berries Hotel and Convention
278,Makakilo City,US,86.32,few clouds,21.3469,-158.0858,Marriott's Ko Olina Beach Club
281,Dingle,PH,87.57,light rain,10.9995,122.6711,SEGAYA PROPERTY
282,Ambon,ID,82.54,few clouds,-3.6954,128.1814,Swiss-Belhotel Ambon
286,Akyab,MM,79.86,light rain,20.15,92.9,Hotel Memory
288,Bhasawar,IN,85.37,overcast clouds,27.0333,77.0333,Babeli Tent House बबली टेंट हाउस
289,Alirajpur,IN,75.88,very heavy rain,22.3031,74.3546,Shree Yatindrasuri Indra Bhavan
292,Cabedelo,BR,74.07,clear sky,-6.9811,-34.8339,Hotel Pigalle
293,Ribeira Grande,PT,70.97,overcast clouds,38.5167,-28.7,Quinta da Meia Eira
294,Tondano,ID,84.29,overcast clouds,1.3038,124.9112,Villa Bella
295,Rodrigues Alves,BR,75.51,clear sky,-7.738,-72.6509,Pousada Aconchego
296,Dhidhdhoo,MV,81.66,overcast clouds,6.8833,73.1,Dhidhoo beach
297,Balkhash,KZ,72.21,clear sky,46.844,74.9804,Family
298,Sao Joao Da Barra,BR,70.54,clear sky,-21.6403,-41.0511,Pousada Porto De Canoas
299,Fortuna,US,81.19,overcast clouds,40.5982,-124.1573,Super 8 by Wyndham Fortuna
300,Kudahuvadhoo,MV,81.18,heavy intensity rain,2.6708,72.8944,Niyama Private Islands Maldives
303,San Andres,CO,82.42,scattered clouds,12.5847,-81.7006,Hotel Arena Blanca
309,Pacific Grove,US,77.58,clear sky,36.6177,-121.9166,Lovers Point Inn
310,Mahon,ES,73.96,clear sky,39.8885,4.2658,ARTIEM Capri
312,Virginia Beach,US,77.02,overcast clouds,36.8529,-75.978,Hilton Virginia Beach Oceanfront
313,Krabi,TH,88.0,scattered clouds,8.0726,98.9105,Tharapark View Hotel
314,Mundra,IN,82.65,overcast clouds,22.85,69.7333,Hotel Bansidhar Palace
315,Anzio,IT,80.73,scattered clouds,41.4853,12.6179,Beauty Hotel & SPA
316,Nova Olimpia,BR,76.98,clear sky,-14.7972,-57.2881,Motel glamour
317,Waddan,LY,74.61,clear sky,29.1614,16.139,محل الشريف محمد العايب
318,Tutoia,BR,79.38,scattered clouds,-2.7619,-42.2744,Pousada Guará's
319,Berbera,SO,87.89,overcast clouds,10.4396,45.0143,IBCO REAL ESTATE PROPERTY
321,Nyurba,RU,82.2,clear sky,63.2842,118.3319,Gostinitsa Alrosa
322,Mujiayingzi,CN,73.51,overcast clouds,42.1167,118.7833,Jinjiang Hotel
323,Mastic Beach,US,78.13,clear sky,40.7668,-72.8521,Brushwood House by Smith Point Beach
326,Gorontalo,ID,86.14,overcast clouds,0.5412,123.0595,Maqna Hotel by Prasanthi
327,Manaure,CO,82.33,light rain,11.7751,-72.4445,Hotel Palaaima
328,Airai,TL,75.22,broken clouds,-8.9266,125.4092,Juvinal Martin
329,Olinda,BR,71.33,mist,-8.0089,-34.8553,Hotel Albergue de Olinda
332,Astoria,US,77.02,few clouds,46.1879,-123.8313,Best Western Astoria Bayfront Hotel
334,Guerrero Negro,MX,70.48,clear sky,27.9769,-114.0611,"Casa Laguna, Bed & Breakfast"
336,Jeremie,HT,81.43,overcast clouds,18.65,-74.1167,Auberge’Inn
338,Nautla,MX,80.13,clear sky,20.2167,-96.7833,Casa Blanca
341,Arraial Do Cabo,BR,70.05,clear sky,-22.9661,-42.0278,Pousada Porto Praia
343,Portland,US,88.45,scattered clouds,45.5234,-122.6762,Embassy Suites by Hilton Portland Downtown
345,Hamilton,US,78.37,clear sky,39.1834,-84.5333,Six Acres Bed & Breakfast
346,Traverse City,US,75.38,scattered clouds,44.7631,-85.6206,Bayshore Resort
348,Taksimo,RU,75.0,clear sky,56.3444,114.8794,"Gostinitsa ""Viktoriya"""
353,Karratha,AU,75.31,overcast clouds,-20.7377,116.8463,ibis Styles Karratha
354,Tyup,KG,77.07,clear sky,42.7276,78.3648,"Yurtochnyy Gorodok ""Ybrayym-Nur"""
357,Hervey Bay,AU,71.71,clear sky,-25.2986,152.8535,Shelly Bay Resort
358,Emerald,AU,70.34,clear sky,-23.5333,148.1667,The Irish Village
360,La Mana,EC,82.89,broken clouds,-0.9333,-79.2167,Hotel Somagg
361,Noumea,NC,77.0,few clouds,-22.2763,166.4572,Hôtel Le Lagon
362,Ixtapa,MX,85.23,few clouds,20.7,-105.2,Hotel Plaza Providencia
363,Marsa Matruh,EG,77.2,scattered clouds,31.3525,27.2453,Beau Site
364,Camacha,PT,70.56,scattered clouds,33.0833,-16.3333,Hotel Porto Santo & Spa
365,Escanaba,US,75.63,overcast clouds,45.7453,-87.0646,Sunset Lodge
366,Isla Vista,US,79.68,clear sky,34.4133,-119.861,Best Western Plus South Coast Inn
368,Alibag,IN,84.27,overcast clouds,18.6411,72.8792,"Radisson Blu Resort & Spa - Alibaug, India"
369,Wangqing,CN,88.9,scattered clouds,43.3218,129.7634,Jianan Fashion Hotel
370,Pakxe,LA,80.74,broken clouds,15.1167,105.7833,Champasak Palace Hotel
372,Kita,ML,76.08,moderate rain,13.0349,-9.4895,Hôtel Chat Rouge
373,High Prairie,CA,70.9,few clouds,55.4334,-116.4858,Royal Star Motor Inn
374,Nouakchott,MR,75.13,clear sky,18.0858,-15.9785,HOTEL IMAN فندق إيمان
380,Tahoua,NE,73.24,overcast clouds,14.8888,5.2692,Bungalows Guesthouse
383,North Myrtle Beach,US,83.05,clear sky,33.816,-78.68,Avista Resort
384,Sirjan,IR,77.81,clear sky,29.452,55.6814,MAPNA Building
385,Yako,BF,77.79,moderate rain,12.9667,-2.2667,CADAAY
386,Udachnyy,RU,84.34,scattered clouds,66.4167,112.4,Severnoye Siyaniye
388,Cayenne,GF,82.09,clear sky,4.9333,-52.3333,Hôtel Le Dronmi
390,Yulara,AU,80.44,clear sky,-25.2406,130.9889,Desert Gardens Hotel - Ayers Rock Resort
393,Bani Walid,LY,70.75,clear sky,31.7566,13.9942,منزل الصابر أبوفانة
396,Srikakulam,IN,87.33,moderate rain,18.3,83.9,Sriram residency
397,Bambanglipuro,ID,80.42,overcast clouds,-7.95,110.2833,Puri Brata
405,Remanso,BR,73.87,scattered clouds,-9.6179,-42.0831,Hotel Mangueira
406,Gouyave,GD,79.57,few clouds,12.1646,-61.7296,Rumboat Retreat
410,Sola,VU,80.53,scattered clouds,-13.8833,167.55,Leumerus Bungalows
412,Hillsborough,US,83.48,broken clouds,37.5741,-122.3794,Hyatt Regency San Francisco Airport
413,Takoradi,GH,75.58,overcast clouds,4.8845,-1.7554,Raybow International Hotel
416,Mount Isa,AU,80.37,broken clouds,-20.7333,139.5,ibis Styles Mt Isa Verona
418,Axim,GH,76.03,overcast clouds,4.8699,-2.2405,AXIM BEACH RESORT AND SPA
422,Chichigalpa,NI,78.28,broken clouds,12.5776,-87.027,La Vista - Hotel & Restaurante
425,Acapulco,MX,84.02,overcast clouds,16.8634,-99.8901,HS Hotsson Smart Acapulco
427,Lakatoro,VU,80.11,overcast clouds,-16.0999,167.4164,Lakatoro Palm Lodge
429,Cockburn Town,TC,82.31,clear sky,21.4612,-71.1419,Osprey Beach Hotel
430,Suifenhe,CN,87.8,overcast clouds,44.4,131.1667,Holiday Inn Suifenhe
437,College,US,71.58,broken clouds,64.8569,-147.8028,Pike's Waterfront Lodge
438,Banda Aceh,ID,84.2,overcast clouds,5.5577,95.3222,Sulthan Hotel International
442,Yanam,IN,82.8,overcast clouds,16.7333,82.2167,The Regency Hotel
443,Talnakh,RU,78.4,overcast clouds,69.4865,88.3972,Talnakh Hotel
445,Westport,US,80.37,haze,41.1415,-73.3579,The Westport Inn
446,Hutchinson,US,74.75,few clouds,38.0608,-97.9298,OYO Hotel Hutchinson KS West 4th Ave
447,Srandakan,ID,80.47,overcast clouds,-7.9386,110.2506,Puri Brata
453,Susanville,US,80.82,overcast clouds,40.4163,-120.653,Comfort Inn & Suites
457,Dir,PK,79.12,scattered clouds,35.2058,71.8756,Sindh Hotal Dir
458,Sabancuy,MX,80.47,clear sky,18.9667,-91.1833,pulpo
459,Daru,PG,79.92,broken clouds,-9.0763,143.2092,Daru Lodge
461,El Vigia,VE,75.72,overcast clouds,8.6219,-71.6506,Liceo Bolivariano 19 De Abril
462,El Negrito,HN,80.2,clear sky,15.3167,-87.7,Taller YJ
464,Union Hidalgo,MX,81.55,overcast clouds,16.4723,-94.8295,"Posada "" Esquipulas"""
465,Baduria,IN,84.13,overcast clouds,22.7417,88.7858,Birla Baduria godown
466,Bull Savanna,JM,77.38,overcast clouds,17.8868,-77.5902,Big Red's
467,Monrovia,LR,75.76,light rain,6.3005,-10.7969,Sunset Inn
468,Erenhot,CN,71.44,clear sky,43.6475,111.9767,Erenhot Rurouni Youth Hostel
469,Natal,BR,75.42,broken clouds,-5.795,-35.2094,Villa Park Hotel | Natal
472,Afantou,GR,80.31,clear sky,36.2935,28.1623,Hotel Iris
474,Bintulu,MY,88.21,thunderstorm,3.1667,113.0333,900 Boutique INN
475,Katsuura,JP,80.71,overcast clouds,35.1333,140.3,Katsuura Hotel Mikazuki
477,Bandarbeyla,SO,76.46,scattered clouds,9.4942,50.8122,JABIR HOTEL
479,Sungaipenuh,ID,74.97,few clouds,-2.0833,101.3833,Hotel Jaya Wisata 2
480,Isangel,VU,80.71,broken clouds,-19.55,169.2667,Tanna Lodge
481,Dubti,ET,79.47,light rain,11.7361,41.0853,degu Shiferaw
482,Sulangan,PH,84.79,broken clouds,11.1373,123.7228,Maia's Beach Resort
483,Kurumkan,RU,74.66,clear sky,54.3,110.3,Ilikchin
484,Fort Morgan,US,86.81,clear sky,40.2503,-103.8,Hampton Inn Fort Morgan
485,Labuhan,ID,81.36,clear sky,-6.8844,112.2051,PT PPI Lamongan Tambak C
488,Manokwari,ID,84.06,scattered clouds,-0.8667,134.0833,Swiss Belhotel Manokwari
489,Paka,MY,76.93,moderate rain,4.6374,103.4368,RUMBIA RESORT VILLA
491,Kapoeta,SS,70.41,overcast clouds,4.7717,33.5903,Eastgate Hotel
494,Chopda,IN,77.86,overcast clouds,21.25,75.3,CHACHA BHATIJA AAMLET CENTAR
498,Hurghada,EG,86.09,clear sky,27.2574,33.8129,Sea Star Beau Rivage Hotel
499,Canico,PT,74.03,scattered clouds,32.6333,-16.85,Quinta Splendida Wellness & Botanical Garden
501,Pokhara,NP,75.81,overcast clouds,28.2333,83.9833,Butterfly Lodge
502,Russell,US,84.51,thunderstorm,32.3502,-85.1999,Macs
506,Gurupi,BR,72.21,clear sky,-11.7292,-49.0686,Via Norte Hotel
509,Isagarh,IN,75.36,overcast clouds,24.8333,77.8833,ACC Cement
513,Saraland,US,84.22,few clouds,30.8207,-88.0706,Microtel Inn & Suites by Wyndham Saraland/North Mobile
515,Kribi,CM,74.77,light rain,2.95,9.9167,Les Vagues bleues
516,Phangnga,TH,87.91,overcast clouds,8.4509,98.5298,Sunimit Mansion
518,Ambulu,ID,80.04,clear sky,-8.345,113.6058,Hotel Ambulu Jember
521,Yarada,IN,84.52,mist,17.65,83.2667,Jeevan
525,Huadian,CN,86.4,scattered clouds,42.9633,126.7478,Huadian Forestry Bureau
526,Kawalu,ID,80.44,scattered clouds,-7.3817,108.2082,KOSAN UNGU UNSIK
527,Majene,ID,82.27,broken clouds,-3.5403,118.9707,Kost Putri RABBANI
530,Nemuro,JP,70.23,overcast clouds,43.3236,145.575,Hotel Nemuro Kaiyoutei
531,Dalnegorsk,RU,89.17,scattered clouds,44.5604,135.5701,Dalnegorsk
532,North Platte,US,85.98,clear sky,41.1239,-100.7654,"Holiday Inn Express & Suites North Platte, an IHG Hotel"
533,Fare,PF,78.44,light rain,-16.7,-151.0167,Maitai Lapita Village Huahine
536,Tucumcari,US,73.24,overcast clouds,35.1717,-103.725,"Holiday Inn Express & Suites Tucumcari, an IHG Hotel"
538,Chahal,GT,73.54,clear sky,15.75,-89.5667,HOTEL MY WONDERFUL DAYS
539,Havelock,US,82.94,scattered clouds,34.8791,-76.9013,Sherwood Motel
542,Visegrad,BA,76.6,overcast clouds,43.7847,19.2992,Hotel Višegrad
546,Koprivnica,HR,72.95,scattered clouds,46.1628,16.8275,Podravina
548,Gra Liyia,GR,75.38,clear sky,35.0167,25.6833,Diktynna Traditional Villas
550,Manoharpur,IN,79.75,light rain,27.3,75.95,कैथल हरियाणा होटल
553,Vung Tau,VN,83.73,clear sky,10.346,107.0843,Green hotel
555,Hambantota,LK,81.41,overcast clouds,6.1241,81.1185,Bungalow 63
556,Netivot,IL,75.9,clear sky,31.4222,34.5886,"'בית החסד - מוסדות מאורות נתן' - מיסודו של הרב נתן בוקובזה זצוק""ל"
557,Miri,MY,87.94,scattered clouds,4.4148,114.0089,"Mega Hotel, Miri"
558,Zhoucun,CN,86.9,overcast clouds,36.8167,117.8167,Zibo Changxin Hotel
561,Dorado,PR,82.47,few clouds,18.4588,-66.2677,Embassy Suites by Hilton Dorado del Mar Beach Resort
564,Namatanai,PG,85.19,few clouds,-3.6667,152.4333,Seagulls Inn Namatani
566,Qax,AZ,70.79,clear sky,41.4225,46.9242,El Resort Hotel
569,Suntar,RU,84.54,scattered clouds,62.1444,117.6319,Дом у Мамы
572,Salinopolis,BR,77.88,clear sky,-0.6136,-47.3561,Salinas Park Resort Maçarico AP101
573,Naze,JP,85.12,heavy intensity rain,28.3667,129.4833,奄美ポートタワーホテル
575,Port-Gentil,GA,74.43,overcast clouds,-0.7193,8.7815,Fengshui Residence
578,Dzilam Gonzalez,MX,76.3,clear sky,21.2833,-88.9333,posadas
584,Port Moresby,PG,82.78,broken clouds,-9.4431,147.1797,Lamana Hotel (Port Moresby)
588,Dali,CN,70.11,overcast clouds,25.7,100.1833,Dali Travelling With Hostel
589,Fossombrone,IT,73.78,overcast clouds,43.6908,12.8127,B&B Camera con vista
593,Mnogovershinnyy,RU,73.22,overcast clouds,53.9353,139.9242,Obshchezhitiye 14
594,Kloulklubed,PW,81.1,overcast clouds,7.0419,134.2556,Storyboard Beach Resort
595,Manoel Urbano,BR,76.53,scattered clouds,-8.8389,-69.2597,Baixada Beira Rio
596,Santa Cruz,BO,74.66,clear sky,-17.8,-63.1667,Aviador Hotel Boutique
597,Ibotirama,BR,72.23,scattered clouds,-12.1853,-43.2206,Serra do Rio Hotel
598,Clearlake,US,80.58,broken clouds,38.9582,-122.6264,Americas Best Value Inn & Suites Clearlake Wine Country
600,Chlorakas,CY,77.88,clear sky,34.8042,32.4083,Elysium Hotel
605,Provost,CA,77.45,broken clouds,52.3501,-110.2683,Provost Motor Inn
606,Nishihara,JP,87.08,broken clouds,26.1842,127.7558,Minshuku Agaihama
609,Roma,US,73.26,clear sky,43.2128,-75.4557,Wingate By Wyndham Rome
610,Linjiang,CN,89.62,broken clouds,41.8069,126.9078,格林豪泰
612,Umm Lajj,SA,85.95,broken clouds,25.0213,37.2685,Moon light Furnished Units
613,Pyay,MM,75.58,overcast clouds,18.8167,95.2167,Shwe Pyi Thar
614,Romitan,UZ,80.55,clear sky,39.9343,64.3814,Hotel Temur
620,Yarmouth,US,76.17,broken clouds,41.7057,-70.2286,Blue Rock Resort
624,Rolla,US,79.14,clear sky,37.9514,-91.7713,"Holiday Inn Express & Suites Rolla - Univ of Missouri S&T, an IHG Hotel"
627,Loandjili,CG,70.83,overcast clouds,-4.7561,11.8578,Résidence ARCHANGE
628,Palmas Bellas,PA,78.1,overcast clouds,9.2319,-80.0867,Estación de Chagres
630,Labuan,MY,87.96,few clouds,5.2767,115.2417,Tiara Labuan Hotel
632,Gizo,SB,83.14,light rain,-8.103,156.8419,Imagination Island
633,Fukue,JP,86.36,few clouds,32.6881,128.8419,Goto Guesthouse Utojuku & SA Car Rental
635,Bontoc,PH,72.82,overcast clouds,17.0899,120.978,Chen's Maligcong Homestay
641,Taiyuan,CN,80.46,overcast clouds,37.8694,112.5603,Jinjiang Inn
642,Findlay,US,75.65,clear sky,41.0442,-83.6499,Drury Inn & Suites Findlay
643,Caborca,MX,87.49,clear sky,30.5838,-111.101,Hotel Los Lagos
644,Hyeres,FR,74.41,broken clouds,43.1167,6.1167,Hôtel des Palmiers
647,Malindi,KE,75.4,broken clouds,-3.2175,40.1191,African House Resort
649,La Ciotat,FR,74.55,overcast clouds,43.1748,5.6045,ibis La Ciotat
650,Pundaguitan,PH,84.38,overcast clouds,6.3711,126.1689,Leonardo Family Beach House 1
652,Zhangye,CN,79.16,overcast clouds,38.9342,100.4517,Zhangye Lvzhou Holiday Inn
656,Port Blair,IN,83.75,overcast clouds,11.6667,92.75,"Welcomhotel By ITC Hotels, Bay Island, Port Blair"
657,Sabha,LY,81.54,clear sky,27.0377,14.4283,Foundation Taaj Asala for Historical Research and Archeology
658,Mayo,US,81.01,scattered clouds,38.8876,-76.5119,Resorts Resource Group International
659,Buluang,PH,84.6,overcast clouds,13.3068,123.3425,Enon Beach Resort
660,Sawtell,AU,70.18,clear sky,-30.3833,153.1,Island Beach House Sawtell
661,Siocon,PH,86.38,overcast clouds,7.7061,122.1353,ABS Hotel
665,Crestview,US,87.24,clear sky,30.7621,-86.5705,"Holiday Inn Express & Suites Crestview South I-10, an IHG Hotel"
666,Gasa,PS,78.78,clear sky,31.5,34.4667,رابطة الفنانين الفلسطينيين
668,Barra,BR,72.97,clear sky,-11.0894,-43.1417,Motel Albatroz
670,Yola,NG,73.13,light rain,9.2,12.4833,Muna Hotel
673,Magistralnyy,RU,79.03,clear sky,56.1725,107.4458,Магистраль
675,Sheridan,US,89.78,clear sky,44.8333,-106.9173,Comfort Inn & Suites
676,Korla,CN,89.37,clear sky,41.7597,86.1469,Gulisitan Hotel
678,Sarkand,KZ,79.47,scattered clouds,45.41,79.9186,Гостиница Сарканд
679,Redmond,US,84.16,clear sky,47.674,-122.1215,Seattle Marriott Redmond
683,Sarwar,IN,78.87,overcast clouds,26.0667,75.0,सैनी समाज भवन न.2
685,Ugoofaaru,MV,82.06,overcast clouds,5.6667,73.0,Ungoofaaru Inn
695,Sibolga,ID,83.16,broken clouds,1.7427,98.7792,Hotel Syariah CN Darussalam
699,Puerto Escondido,MX,83.23,overcast clouds,15.85,-97.0667,Aldea del Bazar Hotel and Spa
700,Brindisi,IT,76.5,clear sky,40.5833,17.6667,Agriturismo Tibitone
701,Saint-Georges,GD,80.28,few clouds,12.0564,-61.7485,Radisson Grenada Beach Resort
703,Oriximina,BR,78.22,overcast clouds,-1.7656,-55.8661,Pousada Tia Amélia
705,Meulaboh,ID,81.25,broken clouds,4.1363,96.1285,Kost Pria
706,Khipro,PK,84.49,overcast clouds,25.8285,69.3772,Mukesh Bhojraj Khatri Graphix Khipro
